[
  {
    "City": "Carran Touhill",
    "Date": "July 2015",
    "Latitude": 51.9995,
    "Longitude": -9.7427
  },
  {
    "City": "Mt Fuji",
    "Date": "Sep 2017",
    "Latitude": 35.3606,
    "Longitude": 138.7274
  },
  {
    "City": "Mt Kilimanjaro",
    "Date": "July 2017",
    "Latitude": -3.0786,
    "Longitude": 37.3514
  },
  {
    "City": "Mount Rainier",
    "Date": "Aug 2010",
    "Latitude": 46.8523,
    "Longitude": -121.7603,
    "Notes": "Summited with my uncle Jul 2023"
  },
  {
    "City": "Kota Kinabalu",
    "Date": "October 2016",
    "Latitude": 5.9784,
    "Longitude": 116.0853
  },
  {
    "City": "Mt Kosciusko",
    "Date": "April 2018",
    "Latitude": -36.4556,
    "Longitude": 148.2693
  }
]
